{"type": "FeatureCollection", "name": "existing_minigrids", "crs": {"type": "name", "properties": {"name": "urn:ogc:def:crs:OGC:1.3:CRS84"}}, "features": [{"type": "Feature", "id": 16, "properties": {"id": 16, "Location": "Agoro_Incl Tumanum B", "Name": "Agoro", "Capacity": 0.08}, "geometry": {"type": "Point", "coordinates": [33.01635851762863, 3.798834735627699]}}, {"type": "Feature", "id": 17, "properties": {"id": 17, "Location": "Apwoyo TC", "Name": "Apwoyo TC", "Capacity": 0.04}, "geometry": {"type": "Point", "coordinates": [32.999982009293184, 3.759321974611247]}}, {"type": "Feature", "id": 18, "properties": {"id": 18, "Location": "Apyeta West/Apyeta Primary School", "Name": "Apyeta West", "Capacity": 0.04}, "geometry": {"type": "Point", "coordinates": [32.368696970271465, 3.305832533136884]}}, {"type": "Feature", "id": 20, "properties": {"id": 20, "Location": "Aweno Olwi", "Name": "Aweno Olwi", "Capacity": 0.02}, "geometry": {"type": "Point", "coordinates": [32.747716488761995, 3.718982094161137]}}, {"type": "Feature", "id": 21, "properties": {"id": 21, "Location": "Ayuu Alali", "Name": "Ayuu Alali", "Capacity": 0.04}, "geometry": {"type": "Point", "coordinates": [32.559799621765556, 3.539051322432994]}}, {"type": "Feature", "id": 22, "properties": {"id": 22, "Location": "Kapeta", "Name": "Kapeta", "Capacity": 0.04}, "geometry": {"type": "Point", "coordinates": [32.59161077155007, 3.504161923806671]}}, {"type": "Feature", "id": 24, "properties": {"id": 24, "Location": "Lapidiyenyi", "Name": "Lapidiyenyi", "Capacity": 0.04}, "geometry": {"type": "Point", "coordinates": [32.92919011162188, 3.581053802848329]}}, {"type": "Feature", "id": 25, "properties": {"id": 25, "Location": "Lelapwot West", "Name": "Lelapwot West", "Capacity": 0.02}, "geometry": {"type": "Point", "coordinates": [32.70873600122144, 3.626899977055402]}}, {"type": "Feature", "id": 26, "properties": {"id": 26, "Location": "Logwak", "Name": "Logwak", "Capacity": 0.04}, "geometry": {"type": "Point", "coordinates": [32.741183626821645, 3.66006329058894]}}, {"type": "Feature", "id": 27, "properties": {"id": 27, "Location": "Loromibeng A-B", "Name": "Loromibeng A-B", "Capacity": 0.04}, "geometry": {"type": "Point", "coordinates": [33.04055354467309, 3.755888619704002]}}, {"type": "Feature", "id": 28, "properties": {"id": 28, "Location": "Moroto East", "Name": "Moroto East", "Capacity": 0.02}, "geometry": {"type": "Point", "coordinates": [32.92925410690149, 3.692973761911286]}}, {"type": "Feature", "id": 29, "properties": {"id": 29, "Location": "Muddu Central", "Name": "Muddu Central", "Capacity": 0.04}, "geometry": {"type": "Point", "coordinates": [32.45228941246789, 3.497037592262318]}}, {"type": "Feature", "id": 30, "properties": {"id": 30, "Location": "Ngomoromo", "Name": "Ngomoromo", "Capacity": 0.04}, "geometry": {"type": "Point", "coordinates": [32.58622986928325, 3.688514913864962]}}, {"type": "Feature", "id": 31, "properties": {"id": 31, "Location": "Oboko TC", "Name": "Oboko TC", "Capacity": 0.04}, "geometry": {"type": "Point", "coordinates": [32.98424440472682, 3.670908056716789]}}, {"type": "Feature", "id": 32, "properties": {"id": 32, "Location": "Ogili TC", "Name": "Ogili TC", "Capacity": 0.08}, "geometry": {"type": "Point", "coordinates": [32.4962165186588, 3.40937892654811]}}, {"type": "Feature", "id": 33, "properties": {"id": 33, "Location": "Opoki", "Name": "Opoki", "Capacity": 0.04}, "geometry": {"type": "Point", "coordinates": [32.71949930249413, 3.429344587973752]}}, {"type": "Feature", "id": 34, "properties": {"id": 34, "Location": "Otaa", "Name": "Otaa", "Capacity": 0.04}, "geometry": {"type": "Point", "coordinates": [32.47961785281305, 3.486252167143757]}}, {"type": "Feature", "id": 35, "properties": {"id": 35, "Location": "Paloga Central", "Name": "Paloga Central", "Capacity": 0.08}, "geometry": {"type": "Point", "coordinates": [32.94280090002235, 3.588338648321625]}}, {"type": "Feature", "id": 36, "properties": {"id": 36, "Location": "Pangira -Licwar Central", "Name": "Pangira-Licwar Central", "Capacity": 0.04}, "geometry": {"type": "Point", "coordinates": [32.65234095276135, 3.614584519314494]}}, {"type": "Feature", "id": 37, "properties": {"id": 37, "Location": "Pany Buk East-West", "Name": "Pany Buk East-West", "Capacity": 0.04}, "geometry": {"type": "Point", "coordinates": [32.94961222814232, 3.675436640264497]}}, {"type": "Feature", "id": 38, "properties": {"id": 38, "Location": "Pawena TC", "Name": "Pawena TC", "Capacity": 0.02}, "geometry": {"type": "Point", "coordinates": [32.669096746315006, 3.281268318176008]}}, {"type": "Feature", "id": 39, "properties": {"id": 39, "Location": "Potika", "Name": "Potika", "Capacity": 0.04}, "geometry": {"type": "Point", "coordinates": [32.88081357944706, 3.719979407271629]}}, {"type": "Feature", "id": 40, "properties": {"id": 40, "Location": "Ywaya", "Name": "Ywaya", "Capacity": 0.04}, "geometry": {"type": "Point", "coordinates": [33.080952828143005, 3.694534995083531]}}, {"type": "Feature", "id": 55, "properties": {"id": 55, "Location": "Palabek", "Name": "Palabek", "Capacity": 0.08}, "geometry": {"type": "Point", "coordinates": [32.41667874497353, 3.361412986948534]}}, {"type": "Feature", "id": 56, "properties": {"id": 56, "Location": "Palabek", "Name": "Base Camp TC", "Capacity": 0.08}, "geometry": {"type": "Point", "coordinates": [32.4531865882327, 3.352470994905555]}}, {"type": "Feature", "id": 57, "properties": {"id": 57, "Location": "Labayango", "Name": "Labayango Primary School", "Capacity": 0.02}, "geometry": {"type": "Point", "coordinates": [32.86379183300447, 3.520976287367084]}}, {"type": "Feature", "id": 58, "properties": {"id": 58, "Location": "Labayango", "Name": "Labayango", "Capacity": 0.04}, "geometry": {"type": "Point", "coordinates": [32.86621765960852, 3.521323924348802]}}, {"type": "Feature", "id": 59, "properties": {"id": 59, "Location": "Apyetta TC", "Name": "Apyetta TC", "Capacity": 0.04}, "geometry": {"type": "Point", "coordinates": [32.416020285239725, 3.373120318710733]}}]}